[
  {
    "id": 6105,
    "name": "Earth Bread + Brewery",
    "brewery_type": "brewpub",
    "street": "7136 Germantown Ave",
    "city": "Philadelphia",
    "state": "Pennsylvania",
    "postal_code": "19119-1843",
    "country": "United States",
    "longitude": "-75.1903546",
    "latitude": "40.0591996",
    "phone": "2152426666",
    "website_url": "http://www.earthbreadbrewery.com",
    "updated_at": "2018-08-24T16:08:19.580Z",
    "tag_list": []
  },
  {
    "id": 5993,
    "name": "2nd Story Brewing Company",
    "brewery_type": "brewpub",
    "street": "117 Chestnut St Frnt",
    "city": "Philadelphia",
    "state": "Pennsylvania",
    "postal_code": "19106-4700",
    "country": "United States",
    "longitude": null,
    "latitude": null,
    "phone": "2673145770",
    "website_url": "http://www.2ndstorybrewing.com/",
    "updated_at": "2018-08-11T21:39:21.556Z",
    "tag_list": []
  },
  {
    "id": 6010,
    "name": "Attic Brewing",
    "brewery_type": "planning",
    "street": "",
    "city": "Philadelphia",
    "state": "Pennsylvania",
    "postal_code": "19144-3603",
    "country": "United States",
    "longitude": null,
    "latitude": null,
    "phone": "7082047376",
    "website_url": "",
    "updated_at": "2018-08-11T21:39:22.381Z",
    "tag_list": []
  },
  {
    "id": 6040,
    "name": "Brewery ARS",
    "brewery_type": "micro",
    "street": "1927-29 W Passyunk Ave",
    "city": "Philadelphia",
    "state": "Pennsylvania",
    "postal_code": "19145-3620",
    "country": "United States",
    "longitude": null,
    "latitude": null,
    "phone": "2159605173",
    "website_url": "http://breweryars.com",
    "updated_at": "2018-08-11T21:39:23.663Z",
    "tag_list": []
  },
  {
    "id": 6013,
    "name": "Bar Hygge / Brewery Techne",
    "brewery_type": "brewpub",
    "street": "1720 Fairmount Ave",
    "city": "Philadelphia",
    "state": "Pennsylvania",
    "postal_code": "19130-2858",
    "country": "United States",
    "longitude": "-75.1656730204082",
    "latitude": "39.9670728571429",
    "phone": "",
    "website_url": "",
    "updated_at": "2018-08-24T16:06:27.154Z",
    "tag_list": []
  },
  {
    "id": 6048,
    "name": "Brewery in Planning - Philadelphia",
    "brewery_type": "planning",
    "street": "",
    "city": "Philadelphia",
    "state": "Pennsylvania",
    "postal_code": "19148-",
    "country": "United States",
    "longitude": null,
    "latitude": null,
    "phone": "",
    "website_url": "http://www.cartesianbrewing.com",
    "updated_at": "2018-08-11T21:39:23.956Z",
    "tag_list": []
  },
  {
    "id": 6049,
    "name": "Brewery In Planning - Philadelphia",
    "brewery_type": "planning",
    "street": "",
    "city": "Philadelphia",
    "state": "Pennsylvania",
    "postal_code": "19125-2822",
    "country": "United States",
    "longitude": null,
    "latitude": null,
    "phone": "2155146630",
    "website_url": "",
    "updated_at": "2018-08-11T21:39:23.987Z",
    "tag_list": []
  },
  {
    "id": 6085,
    "name": "Crime \u0026 Punishment Brewing Company",
    "brewery_type": "brewpub",
    "street": "2711 W Girard Ave",
    "city": "Philadelphia",
    "state": "Pennsylvania",
    "postal_code": "19130-1212",
    "country": "United States",
    "longitude": "-75.1808422",
    "latitude": "39.9743646",
    "phone": "2152352739",
    "website_url": "http://www.crimeandpunishmentbrewery.com",
    "updated_at": "2018-08-24T16:07:54.031Z",
    "tag_list": []
  },
  {
    "id": 6100,
    "name": "Dock Street Brewery",
    "brewery_type": "brewpub",
    "street": "701 S 50th St Fl 1",
    "city": "Philadelphia",
    "state": "Pennsylvania",
    "postal_code": "19143-1689",
    "country": "United States",
    "longitude": null,
    "latitude": null,
    "phone": "2157262337",
    "website_url": "http://www.dockstreetbeer.com",
    "updated_at": "2018-08-11T21:39:25.912Z",
    "tag_list": []
  },
  {
    "id": 6101,
    "name": "Dock Street Brewing Co",
    "brewery_type": "planning",
    "street": "",
    "city": "Philadelphia",
    "state": "Pennsylvania",
    "postal_code": "19146",
    "country": "United States",
    "longitude": null,
    "latitude": null,
    "phone": "",
    "website_url": "",
    "updated_at": "2018-08-11T21:39:25.949Z",
    "tag_list": []
  },
  {
    "id": 6115,
    "name": "Evil Genius Beer Co",
    "brewery_type": "micro",
    "street": "1727 N Front St",
    "city": "Philadelphia",
    "state": "Pennsylvania",
    "postal_code": "19122-3203",
    "country": "United States",
    "longitude": "-75.134015609062",
    "latitude": "39.9757801778721",
    "phone": "2154256820",
    "website_url": "http://www.evilgeniusbeer.com",
    "updated_at": "2018-08-24T16:08:31.517Z",
    "tag_list": []
  },
  {
    "id": 6117,
    "name": "Fermentery Form",
    "brewery_type": "micro",
    "street": "161 Cecil B Moore Ave",
    "city": "Philadelphia",
    "state": "Pennsylvania",
    "postal_code": "19122-3234",
    "country": "United States",
    "longitude": "-75.136886",
    "latitude": "39.976092",
    "phone": "2675183676",
    "website_url": "http://www.fermenteryform.com",
    "updated_at": "2018-08-24T16:08:34.529Z",
    "tag_list": []
  },
  {
    "id": 6119,
    "name": "Fishtown Brewing Co",
    "brewery_type": "brewpub",
    "street": "1101 Frankford Ave",
    "city": "Philadelphia",
    "state": "Pennsylvania",
    "postal_code": "19125-4153",
    "country": "United States",
    "longitude": "-75.0159588",
    "latitude": "40.0460129",
    "phone": "2159901396",
    "website_url": "http://fishtownbrewpub.com",
    "updated_at": "2018-08-24T16:08:37.520Z",
    "tag_list": []
  },
  {
    "id": 6129,
    "name": "Goose Island Philadelphia",
    "brewery_type": "brewpub",
    "street": "1002 Canal St",
    "city": "Philadelphia",
    "state": "Pennsylvania",
    "postal_code": "19123",
    "country": "United States",
    "longitude": "-75.1350634081633",
    "latitude": "39.9648491020408",
    "phone": "",
    "website_url": "",
    "updated_at": "2018-08-24T16:08:51.149Z",
    "tag_list": []
  },
  {
    "id": 6169,
    "name": "Kensington Barrel Project",
    "brewery_type": "planning",
    "street": "",
    "city": "Philadelphia",
    "state": "Pennsylvania",
    "postal_code": "19134",
    "country": "United States",
    "longitude": null,
    "latitude": null,
    "phone": "16199488705",
    "website_url": "http://www.kensingtonbarrelproject.com",
    "updated_at": "2018-08-11T21:39:28.021Z",
    "tag_list": []
  },
  {
    "id": 6154,
    "name": "Iron Hill Brewery \u0026 Restaurant - Chestnut Hill",
    "brewery_type": "brewpub",
    "street": "8400 Germantown Ave",
    "city": "Philadelphia",
    "state": "Pennsylvania",
    "postal_code": "19118-3328",
    "country": "United States",
    "longitude": "-75.205095",
    "latitude": "40.075132",
    "phone": "2159485600",
    "website_url": "http://www.ironhillbrewery.com",
    "updated_at": "2018-08-24T16:09:21.614Z",
    "tag_list": []
  },
  {
    "id": 6188,
    "name": "Love City Brewing Company",
    "brewery_type": "micro",
    "street": "1016 Buttonwood St",
    "city": "Philadelphia",
    "state": "Pennsylvania",
    "postal_code": "19123-3703",
    "country": "United States",
    "longitude": "-75.1550941428571",
    "latitude": "39.9606778163265",
    "phone": "",
    "website_url": "http://www.lovecitybrewing.com",
    "updated_at": "2018-08-24T16:10:03.883Z",
    "tag_list": []
  },
  {
    "id": 6193,
    "name": "Manayunk Brewing Co \u0026 Restaurant",
    "brewery_type": "brewpub",
    "street": "4120 Main St",
    "city": "Philadelphia",
    "state": "Pennsylvania",
    "postal_code": "19127-1618",
    "country": "United States",
    "longitude": "-75.2189308",
    "latitude": "40.0223235",
    "phone": "2154828220",
    "website_url": "http://www.manayunkbrewery.com",
    "updated_at": "2018-08-24T16:10:11.413Z",
    "tag_list": []
  },
  {
    "id": 6229,
    "name": "Philadelphia Brewing Co",
    "brewery_type": "micro",
    "street": "2423 Amber St",
    "city": "Philadelphia",
    "state": "Pennsylvania",
    "postal_code": "19125-1606",
    "country": "United States",
    "longitude": "-75.1276999090909",
    "latitude": "39.9828273636364",
    "phone": "2154272739",
    "website_url": "http://www.philadelphiabrewing.com",
    "updated_at": "2018-08-24T16:11:01.196Z",
    "tag_list": []
  },
  {
    "id": 6235,
    "name": "Point Breeze Brewing",
    "brewery_type": "micro",
    "street": "1225 S 28th St",
    "city": "Philadelphia",
    "state": "Pennsylvania",
    "postal_code": "19146-",
    "country": "United States",
    "longitude": "-75.1900898",
    "latitude": "39.9382866",
    "phone": "",
    "website_url": "http://www.pointbreezebrewing.com",
    "updated_at": "2018-08-24T16:11:08.596Z",
    "tag_list": []
  }
]
